{
  "features": [
    {
      "geometry": {
        "coordinates": [
          9.215665642088695,
          48.802951595092665
        ],
        "type": "Point"
      },
      "properties": {
        "id": "0x12f5230",
        "station_id": "555921",
        "station_label": "Bad Cannstatt Wilhelmsplatz"
      },
      "type": "Feature"
    },
    {
      "geometry": {
        "coordinates": [
          9.22550320246762,
          48.79343751175695
        ],
        "type": "Point"
      },
      "properties": {
        "id": "0x12f53f0",
        "station_id": "556020",
        "station_label": "NeckarPark"
      },
      "type": "Feature"
    },
    {
      "geometry": {
        "coordinates": [
          9.199952709116802,
          48.76125766319731
        ],
        "type": "Point"
      },
      "properties": {
        "id": "0x12f5620",
        "station_id": "561217",
        "station_label": "Stelle"
      },
      "type": "Feature"
    },
    {
      "geometry": {
        "coordinates": [
          9.201033925799992,
          48.766370768017524
        ],
        "type": "Point"
      },
      "properties": {
        "id": "0x12f5ff0",
        "station_id": "562645",
        "station_label": "Geroksruhe"
      },
      "type": "Feature"
    },
    {
      "geometry": {
        "coordinates": [
          9.195298573170634,
          48.76949598998757
        ],
        "type": "Point"
      },
      "properties": {
        "id": "0x12f6250",
        "station_id": "559506",
        "station_label": "Payerstr."
      },
      "type": "Feature"
    },
    {
      "geometry": {
        "coordinates": [
          9.153055282557737,
          48.71031561927995
        ],
        "type": "Point"
      },
      "properties": {
        "id": "0x12f64c0",
        "station_id": "559269",
        "station_label": "Fasanenhof"
      },
      "type": "Feature"
    },
    {
      "geometry": {
        "coordinates": [
          9.194662589967464,
          48.773393266630606
        ],
        "type": "Point"
      },
      "properties": {
        "id": "0x12f66b0",
        "station_id": "559220",
        "station_label": "Bubenbad"
      },
      "type": "Feature"
    },
    {
      "geometry": {
        "coordinates": [
          9.191765369313815,
          48.7756355248798
        ],
        "type": "Point"
      },
      "properties": {
        "id": "0x12f6a80",
        "station_id": "559593",
        "station_label": "Stafflenbergstr."
      },
      "type": "Feature"
    },
    {
      "geometry": {
        "coordinates": [
          9.19274668564379,
          48.77899702663923
        ],
        "type": "Point"
      },
      "properties": {
        "id": "0x12f6dc0",
        "station_id": "561216",
        "station_label": "Heidehofstr."
      },
      "type": "Feature"
    },
    {
      "geometry": {
        "coordinates": [
          9.19040064586074,
          48.77781161612419
        ],
        "type": "Point"
      },
      "properties": {
        "id": "0x22d6ca0",
        "station_id": "559264",
        "station_label": "Eugensplatz"
      },
      "type": "Feature"
    },
    {
      "geometry": {
        "coordinates": [
          9.185980971999909,
          48.774062430192394
        ],
        "type": "Point"
      },
      "properties": {
        "id": "0x22d6ef0",
        "station_id": "561215",
        "station_label": "Olgaeck"
      },
      "type": "Feature"
    },
    {
      "geometry": {
        "coordinates": [
          9.182805698811169,
          48.77598847608771
        ],
        "type": "Point"
      },
      "properties": {
        "id": "0x22d71a0",
        "station_id": "561375",
        "station_label": "Charlottenplatz"
      },
      "type": "Feature"
    },
    {
      "geometry": {
        "coordinates": [
          9.17912368812419,
          48.7790022705818
        ],
        "type": "Point"
      },
      "properties": {
        "id": "0x22d75a0",
        "station_id": "561197",
        "station_label": "Schlossplatz"
      },
      "type": "Feature"
    },
    {
      "geometry": {
        "coordinates": [
          9.181059605301984,
          48.78311650945579
        ],
        "type": "Point"
      },
      "properties": {
        "id": "0x22d7870",
        "station_id": "561211",
        "station_label": "Hauptbahnhof"
      },
      "type": "Feature"
    },
    {
      "geometry": {
        "coordinates": [
          9.181130652725697,
          48.79053105982044
        ],
        "type": "Point"
      },
      "properties": {
        "id": "0x22d7b60",
        "station_id": "559621",
        "station_label": "Stadtbibliothek"
      },
      "type": "Feature"
    },
    {
      "geometry": {
        "coordinates": [
          9.182636459756663,
          48.79808088409425
        ],
        "type": "Point"
      },
      "properties": {
        "id": "0x22d7e30",
        "station_id": "560941",
        "station_label": "Eckartshaldenweg"
      },
      "type": "Feature"
    },
    {
      "geometry": {
        "coordinates": [
          9.183441001944304,
          48.80391147073108
        ],
        "type": "Point"
      },
      "properties": {
        "id": "0x22d8240",
        "station_id": "561213",
        "station_label": "L\u00f6wentorbr\u00fccke"
      },
      "type": "Feature"
    },
    {
      "geometry": {
        "coordinates": [
          9.183225253579137,
          48.8094243872371
        ],
        "type": "Point"
      },
      "properties": {
        "id": "0x22d8580",
        "station_id": "561379",
        "station_label": "Pragsattel"
      },
      "type": "Feature"
    },
    {
      "geometry": {
        "coordinates": [
          9.177595271669196,
          48.815802383143364
        ],
        "type": "Point"
      },
      "properties": {
        "id": "0x22d87e0",
        "station_id": "559579",
        "station_label": "Sieglestr."
      },
      "type": "Feature"
    },
    {
      "geometry": {
        "coordinates": [
          9.175445316294583,
          48.81955989093461
        ],
        "type": "Point"
      },
      "properties": {
        "id": "0x22d8af0",
        "station_id": "559213",
        "station_label": "Borsigstr."
      },
      "type": "Feature"
    },
    {
      "geometry": {
        "coordinates": [
          9.172785565571866,
          48.823004799859945
        ],
        "type": "Point"
      },
      "properties": {
        "id": "0x22d8ee0",
        "station_id": "559297",
        "station_label": "Friedrichswahl"
      },
      "type": "Feature"
    },
    {
      "geometry": {
        "coordinates": [
          9.173905373340764,
          48.82730752411103
        ],
        "type": "Point"
      },
      "properties": {
        "id": "0x22d91f0",
        "station_id": "561377",
        "station_label": "Hohensteinstr."
      },
      "type": "Feature"
    },
    {
      "geometry": {
        "coordinates": [
          9.174722671596188,
          48.8298158923129
        ],
        "type": "Point"
      },
      "properties": {
        "id": "0x22d9500",
        "station_id": "561239",
        "station_label": "Zuffenhausen Kelterplatz"
      },
      "type": "Feature"
    },
    {
      "geometry": {
        "coordinates": [
          9.170806105677379,
          48.832226953120696
        ],
        "type": "Point"
      },
      "properties": {
        "id": "0x22d9810",
        "station_id": "559393",
        "station_label": "Kirchtalstr."
      },
      "type": "Feature"
    },
    {
      "geometry": {
        "coordinates": [
          9.162973142141377,
          48.83632380788482
        ],
        "type": "Point"
      },
      "properties": {
        "id": "0x22d9b90",
        "station_id": "559552",
        "station_label": "Salzwiesenstr."
      },
      "type": "Feature"
    },
    {
      "geometry": {
        "coordinates": [
          9.161062413883512,
          48.83827682275085
        ],
        "type": "Point"
      },
      "properties": {
        "id": "0x22ddd60",
        "station_id": "559669",
        "station_label": "Wimpfener Str."
      },
      "type": "Feature"
    },
    {
      "geometry": {
        "coordinates": [
          9.159336163407062,
          48.842464062139406
        ],
        "type": "Point"
      },
      "properties": {
        "id": "0x22de060",
        "station_id": "559350",
        "station_label": "Heutingsheimer Str."
      },
      "type": "Feature"
    },
    {
      "geometry": {
        "coordinates": [
          9.157159285584202,
          48.846757799225486
        ],
        "type": "Point"
      },
      "properties": {
        "id": "0x22de380",
        "station_id": "561303",
        "station_label": "Korntaler Str."
      },
      "type": "Feature"
    },
    {
      "geometry": {
        "coordinates": [
          9.156174549999994,
          48.850048500000185
        ],
        "type": "Point"
      },
      "properties": {
        "id": "0x22de6d0",
        "station_id": "562157",
        "station_label": "Stammheim"
      },
      "type": "Feature"
    },
    {
      "geometry": {
        "coordinates": [
          9.14701584264134,
          48.73052612680886
        ],
        "type": "Point"
      },
      "properties": {
        "id": "0x22df390",
        "station_id": "561390",
        "station_label": "M\u00f6hringen Bf"
      },
      "type": "Feature"
    },
    {
      "geometry": {
        "coordinates": [
          9.150604088383963,
          48.733193882046244
        ],
        "type": "Point"
      },
      "properties": {
        "id": "0x22df8b0",
        "station_id": "559505",
        "station_label": "Riedsee"
      },
      "type": "Feature"
    },
    {
      "geometry": {
        "coordinates": [
          9.17476875325793,
          48.754922452155945
        ],
        "type": "Point"
      },
      "properties": {
        "id": "0x22dfcc0",
        "station_id": "560946",
        "station_label": "Weinsteige"
      },
      "type": "Feature"
    },
    {
      "geometry": {
        "coordinates": [
          9.234018269952974,
          48.738137747991644
        ],
        "type": "Point"
      },
      "properties": {
        "id": "0x22e0370",
        "station_id": "560942",
        "station_label": "Heumaden"
      },
      "type": "Feature"
    },
    {
      "geometry": {
        "coordinates": [
          9.19004745314139,
          48.797471447244156
        ],
        "type": "Point"
      },
      "properties": {
        "id": "0x22e05f0",
        "station_id": "559456",
        "station_label": "Mittnachtstr."
      },
      "type": "Feature"
    },
    {
      "geometry": {
        "coordinates": [
          9.189690437534626,
          48.80309675348859
        ],
        "type": "Point"
      },
      "properties": {
        "id": "0x22e0860",
        "station_id": "561403",
        "station_label": "Nordbahnhof"
      },
      "type": "Feature"
    },
    {
      "geometry": {
        "coordinates": [
          9.183739280743762,
          48.767910390376976
        ],
        "type": "Point"
      },
      "properties": {
        "id": "0x22e0b40",
        "station_id": "561912",
        "station_label": "Bopser"
      },
      "type": "Feature"
    },
    {
      "geometry": {
        "coordinates": [
          9.18613429688128,
          48.769853082627286
        ],
        "type": "Point"
      },
      "properties": {
        "id": "0x22e0ef0",
        "station_id": "559241",
        "station_label": "Dobelstr."
      },
      "type": "Feature"
    },
    {
      "geometry": {
        "coordinates": [
          9.227644680322587,
          48.73975711482603
        ],
        "type": "Point"
      },
      "properties": {
        "id": "0x22e1370",
        "station_id": "561683",
        "station_label": "Bockelstr.-Heumaden"
      },
      "type": "Feature"
    },
    {
      "geometry": {
        "coordinates": [
          9.218503860118247,
          48.741399392479224
        ],
        "type": "Point"
      },
      "properties": {
        "id": "0x22e1450",
        "station_id": "561219",
        "station_label": "Schemppstr."
      },
      "type": "Feature"
    },
    {
      "geometry": {
        "coordinates": [
          9.213032045718816,
          48.744521328549006
        ],
        "type": "Point"
      },
      "properties": {
        "id": "0x22e1630",
        "station_id": "561221",
        "station_label": "Sillenbuch"
      },
      "type": "Feature"
    },
    {
      "geometry": {
        "coordinates": [
          9.208098903505205,
          48.74775433738859
        ],
        "type": "Point"
      },
      "properties": {
        "id": "0x22e1850",
        "station_id": "559582",
        "station_label": "Silberwald"
      },
      "type": "Feature"
    },
    {
      "geometry": {
        "coordinates": [
          9.153636508328345,
          48.74107626865015
        ],
        "type": "Point"
      },
      "properties": {
        "id": "0x22e3780",
        "station_id": "559585",
        "station_label": "Sonnenberg"
      },
      "type": "Feature"
    },
    {
      "geometry": {
        "coordinates": [
          9.160315730581623,
          48.7121316927068
        ],
        "type": "Point"
      },
      "properties": {
        "id": "0x22e3e70",
        "station_id": "555920",
        "station_label": "Europaplatz"
      },
      "type": "Feature"
    },
    {
      "geometry": {
        "coordinates": [
          9.185729164044803,
          48.83058683232494
        ],
        "type": "Point"
      },
      "properties": {
        "id": "0x22e5260",
        "station_id": "559566",
        "station_label": "Schozacher Str."
      },
      "type": "Feature"
    },
    {
      "geometry": {
        "coordinates": [
          9.159458104575974,
          48.74397271833792
        ],
        "type": "Point"
      },
      "properties": {
        "id": "0x22e5980",
        "station_id": "559507",
        "station_label": "Peregrinastr."
      },
      "type": "Feature"
    },
    {
      "geometry": {
        "coordinates": [
          9.189826924281302,
          48.79326959175031
        ],
        "type": "Point"
      },
      "properties": {
        "id": "0x22e9b80",
        "station_id": "559453",
        "station_label": "Milchhof"
      },
      "type": "Feature"
    },
    {
      "geometry": {
        "coordinates": [
          9.170334808024146,
          48.707673887404944
        ],
        "type": "Point"
      },
      "properties": {
        "id": "0x22ea310",
        "station_id": "562703",
        "station_label": "Fasanenhof Schelmenwasen"
      },
      "type": "Feature"
    },
    {
      "geometry": {
        "coordinates": [
          9.139210151597768,
          48.727776951162845
        ],
        "type": "Point"
      },
      "properties": {
        "id": "0x22ea880",
        "station_id": "561309",
        "station_label": "Vaihinger Str."
      },
      "type": "Feature"
    },
    {
      "geometry": {
        "coordinates": [
          9.167400314700272,
          48.71173373344455
        ],
        "type": "Point"
      },
      "properties": {
        "id": "0x22ead60",
        "station_id": "555944",
        "station_label": "EnBW City"
      },
      "type": "Feature"
    },
    {
      "geometry": {
        "coordinates": [
          9.168325805110044,
          48.81345205608984
        ],
        "type": "Point"
      },
      "properties": {
        "id": "0x22eff40",
        "station_id": "561487",
        "station_label": "Feuerbach"
      },
      "type": "Feature"
    },
    {
      "geometry": {
        "coordinates": [
          9.158957379397275,
          48.811596964035594
        ],
        "type": "Point"
      },
      "properties": {
        "id": "0x22f01e0",
        "station_id": "559666",
        "station_label": "Wilhelm-Geiger-Platz"
      },
      "type": "Feature"
    },
    {
      "geometry": {
        "coordinates": [
          9.149922317564682,
          48.81004285031243
        ],
        "type": "Point"
      },
      "properties": {
        "id": "0x22f04f0",
        "station_id": "562155",
        "station_label": "F\u00f6hrich"
      },
      "type": "Feature"
    },
    {
      "geometry": {
        "coordinates": [
          9.163471616309598,
          48.74637571086381
        ],
        "type": "Point"
      },
      "properties": {
        "id": "0x22f48d0",
        "station_id": "562520",
        "station_label": "Degerloch Albstr."
      },
      "type": "Feature"
    },
    {
      "geometry": {
        "coordinates": [
          9.168858662554031,
          48.748844680883124
        ],
        "type": "Point"
      },
      "properties": {
        "id": "0x22f4b80",
        "station_id": "561225",
        "station_label": "Degerloch"
      },
      "type": "Feature"
    },
    {
      "geometry": {
        "coordinates": [
          9.177874440889685,
          48.81086488140303
        ],
        "type": "Point"
      },
      "properties": {
        "id": "0x22f51f0",
        "station_id": "559449",
        "station_label": "Maybachstr."
      },
      "type": "Feature"
    },
    {
      "geometry": {
        "coordinates": [
          9.141530103642639,
          48.716810310407375
        ],
        "type": "Point"
      },
      "properties": {
        "id": "0x22f5530",
        "station_id": "559461",
        "station_label": "M\u00f6hringen Freibad"
      },
      "type": "Feature"
    },
    {
      "geometry": {
        "coordinates": [
          9.136808223283017,
          48.722137534229695
        ],
        "type": "Point"
      },
      "properties": {
        "id": "0x22f6590",
        "station_id": "559536",
        "station_label": "Rohrer Weg"
      },
      "type": "Feature"
    },
    {
      "geometry": {
        "coordinates": [
          9.14223119939437,
          48.8098475283478
        ],
        "type": "Point"
      },
      "properties": {
        "id": "0x2300060",
        "station_id": "559589",
        "station_label": "Sportpark Feuerbach"
      },
      "type": "Feature"
    },
    {
      "geometry": {
        "coordinates": [
          9.134878826073962,
          48.81230893419138
        ],
        "type": "Point"
      },
      "properties": {
        "id": "0x2300410",
        "station_id": "560945",
        "station_label": "Pfostenw\u00e4ldle-Feuerbach"
      },
      "type": "Feature"
    },
    {
      "geometry": {
        "coordinates": [
          9.123960808292987,
          48.814565429811026
        ],
        "type": "Point"
      },
      "properties": {
        "id": "0x23007e0",
        "station_id": "559412",
        "station_label": "Landauer Str."
      },
      "type": "Feature"
    },
    {
      "geometry": {
        "coordinates": [
          9.112821621383008,
          48.8136621992642
        ],
        "type": "Point"
      },
      "properties": {
        "id": "0x2300ab0",
        "station_id": "561222",
        "station_label": "Weilimdorf L\u00f6wen-Markt"
      },
      "type": "Feature"
    },
    {
      "geometry": {
        "coordinates": [
          9.108197917693992,
          48.81037959933917
        ],
        "type": "Point"
      },
      "properties": {
        "id": "0x2300df0",
        "station_id": "559526",
        "station_label": "Rastatter Str."
      },
      "type": "Feature"
    },
    {
      "geometry": {
        "coordinates": [
          9.105192776973928,
          48.80746197872845
        ],
        "type": "Point"
      },
      "properties": {
        "id": "0x2301170",
        "station_id": "559670",
        "station_label": "Wolfbusch"
      },
      "type": "Feature"
    },
    {
      "geometry": {
        "coordinates": [
          9.101192681858356,
          48.804268968291616
        ],
        "type": "Point"
      },
      "properties": {
        "id": "0x2301430",
        "station_id": "559195",
        "station_label": "Bergheimer Hof"
      },
      "type": "Feature"
    },
    {
      "geometry": {
        "coordinates": [
          9.093118750966603,
          48.80268907108704
        ],
        "type": "Point"
      },
      "properties": {
        "id": "0x2301740",
        "station_id": "560944",
        "station_label": "Salamanderweg"
      },
      "type": "Feature"
    },
    {
      "geometry": {
        "coordinates": [
          9.08782396245392,
          48.80262635450599
        ],
        "type": "Point"
      },
      "properties": {
        "id": "0x2301a50",
        "station_id": "561307",
        "station_label": "Giebel"
      },
      "type": "Feature"
    },
    {
      "geometry": {
        "coordinates": [
          9.082446419678488,
          48.80243675883977
        ],
        "type": "Point"
      },
      "properties": {
        "id": "0x2301d50",
        "station_id": "555548",
        "station_label": "Breitwiesen, Gerlingen"
      },
      "type": "Feature"
    },
    {
      "geometry": {
        "coordinates": [
          9.072926101189896,
          48.80130066305626
        ],
        "type": "Point"
      },
      "properties": {
        "id": "0x2302060",
        "station_id": "556437",
        "station_label": "Gerlingen Siedlung"
      },
      "type": "Feature"
    },
    {
      "geometry": {
        "coordinates": [
          9.063960577674221,
          48.80018556177571
        ],
        "type": "Point"
      },
      "properties": {
        "id": "0x23023e0",
        "station_id": "561272",
        "station_label": "Gerlingen"
      },
      "type": "Feature"
    },
    {
      "geometry": {
        "coordinates": [
          9.112174708532825,
          48.726488193238076
        ],
        "type": "Point"
      },
      "properties": {
        "id": "0x23026c0",
        "station_id": "561358",
        "station_label": "Vaihingen"
      },
      "type": "Feature"
    },
    {
      "geometry": {
        "coordinates": [
          9.117488245115457,
          48.72888481269039
        ],
        "type": "Point"
      },
      "properties": {
        "id": "0x23027d0",
        "station_id": "560957",
        "station_label": "Jurastr."
      },
      "type": "Feature"
    },
    {
      "geometry": {
        "coordinates": [
          9.122970238564234,
          48.727274427854944
        ],
        "type": "Point"
      },
      "properties": {
        "id": "0x2302b00",
        "station_id": "559651",
        "station_label": "Wallgraben"
      },
      "type": "Feature"
    },
    {
      "geometry": {
        "coordinates": [
          9.129606296996013,
          48.72685473125913
        ],
        "type": "Point"
      },
      "properties": {
        "id": "0x2302d70",
        "station_id": "559549",
        "station_label": "SSB-Zentrum"
      },
      "type": "Feature"
    },
    {
      "geometry": {
        "coordinates": [
          9.188399444768887,
          48.751299262054
        ],
        "type": "Point"
      },
      "properties": {
        "id": "0x2307a60",
        "station_id": "560743",
        "station_label": "Waldau"
      },
      "type": "Feature"
    },
    {
      "geometry": {
        "coordinates": [
          9.204503867797278,
          48.808088628189104
        ],
        "type": "Point"
      },
      "properties": {
        "id": "0x2307d10",
        "station_id": "559250",
        "station_label": "Glockenstr."
      },
      "type": "Feature"
    },
    {
      "geometry": {
        "coordinates": [
          9.22590733512875,
          48.805007084430194
        ],
        "type": "Point"
      },
      "properties": {
        "id": "0x2307e30",
        "station_id": "561296",
        "station_label": "Uff-Kirchhof"
      },
      "type": "Feature"
    },
    {
      "geometry": {
        "coordinates": [
          9.272580768358056,
          48.72036360837971
        ],
        "type": "Point"
      },
      "properties": {
        "id": "0x2308600",
        "station_id": "562239",
        "station_label": "Scharnhauser Park, Ostfildern"
      },
      "type": "Feature"
    },
    {
      "geometry": {
        "coordinates": [
          9.194458364963308,
          48.807068352531324
        ],
        "type": "Point"
      },
      "properties": {
        "id": "0x2308b60",
        "station_id": "559287",
        "station_label": "Rosensteinpark"
      },
      "type": "Feature"
    },
    {
      "geometry": {
        "coordinates": [
          9.271643951658689,
          48.72456574213206
        ],
        "type": "Point"
      },
      "properties": {
        "id": "0x230afe0",
        "station_id": "560810",
        "station_label": "Parksiedlung, Ostfildern"
      },
      "type": "Feature"
    },
    {
      "geometry": {
        "coordinates": [
          9.20224204237016,
          48.78916669469087
        ],
        "type": "Point"
      },
      "properties": {
        "id": "0x230b440",
        "station_id": "559380",
        "station_label": "Karl-Olga-Krankenhaus"
      },
      "type": "Feature"
    },
    {
      "geometry": {
        "coordinates": [
          9.171417920997092,
          48.79950695941789
        ],
        "type": "Point"
      },
      "properties": {
        "id": "0x230bd70",
        "station_id": "559391",
        "station_label": "Killesberg"
      },
      "type": "Feature"
    },
    {
      "geometry": {
        "coordinates": [
          9.209158976829283,
          48.79918334101981
        ],
        "type": "Point"
      },
      "properties": {
        "id": "0x230c1d0"
      },
      "type": "Feature"
    },
    {
      "geometry": {
        "coordinates": [
          9.184149248719404,
          48.793566624252186
        ],
        "type": "Point"
      },
      "properties": {
        "id": "0x230d020",
        "station_id": "559521",
        "station_label": "Pragfriedhof"
      },
      "type": "Feature"
    },
    {
      "geometry": {
        "coordinates": [
          9.189121689721564,
          48.808045415526514
        ],
        "type": "Point"
      },
      "properties": {
        "id": "0x230d190",
        "station_id": "561234",
        "station_label": "L\u00f6wentor"
      },
      "type": "Feature"
    },
    {
      "geometry": {
        "coordinates": [
          9.20017799928999,
          48.8105486287681
        ],
        "type": "Point"
      },
      "properties": {
        "id": "0x230d430",
        "station_id": "556256",
        "station_label": "Z\u00fcricher Str."
      },
      "type": "Feature"
    },
    {
      "geometry": {
        "coordinates": [
          9.203718993377198,
          48.81375509054081
        ],
        "type": "Point"
      },
      "properties": {
        "id": "0x230d7b0",
        "station_id": "556247",
        "station_label": "Riethm\u00fcllerhaus"
      },
      "type": "Feature"
    },
    {
      "geometry": {
        "coordinates": [
          9.204360817864634,
          48.81827637812855
        ],
        "type": "Point"
      },
      "properties": {
        "id": "0x230db80",
        "station_id": "556244",
        "station_label": "Hallschlag"
      },
      "type": "Feature"
    },
    {
      "geometry": {
        "coordinates": [
          9.142811011897734,
          48.707207533755735
        ],
        "type": "Point"
      },
      "properties": {
        "id": "0x230e0a0",
        "station_id": "557388",
        "station_label": "Leinfelden Frank, Leinfelden-Echterdingen"
      },
      "type": "Feature"
    },
    {
      "geometry": {
        "coordinates": [
          9.194834583834878,
          48.75360120371258
        ],
        "type": "Point"
      },
      "properties": {
        "id": "0x2313300"
      },
      "type": "Feature"
    },
    {
      "geometry": {
        "coordinates": [
          9.142479640909265,
          48.69790606946599
        ],
        "type": "Point"
      },
      "properties": {
        "id": "0x23146d0",
        "station_id": "561436",
        "station_label": "Leinfelden Bahnhof, Leinfelden-Echterdingen"
      },
      "type": "Feature"
    },
    {
      "geometry": {
        "coordinates": [
          9.143221287075823,
          48.703712447416585
        ],
        "type": "Point"
      },
      "properties": {
        "id": "0x23147b0",
        "station_id": "557385",
        "station_label": "Leinfelden Unteraichen, Leinfelden-Echterdingen"
      },
      "type": "Feature"
    },
    {
      "geometry": {
        "coordinates": [
          9.20594421994143,
          48.79695480296055
        ],
        "type": "Point"
      },
      "properties": {
        "id": "0x2314a10",
        "station_id": "559455",
        "station_label": "Mineralb\u00e4der"
      },
      "type": "Feature"
    },
    {
      "geometry": {
        "coordinates": [
          9.20038967635141,
          48.79213714616845
        ],
        "type": "Point"
      },
      "properties": {
        "id": "0x2314d10",
        "station_id": "559452",
        "station_label": "Metzstr."
      },
      "type": "Feature"
    },
    {
      "geometry": {
        "coordinates": [
          9.19513702098133,
          48.789018322671815
        ],
        "type": "Point"
      },
      "properties": {
        "id": "0x2315120",
        "station_id": "561295",
        "station_label": "St\u00f6ckach"
      },
      "type": "Feature"
    },
    {
      "geometry": {
        "coordinates": [
          9.190159151132203,
          48.78607224777781
        ],
        "type": "Point"
      },
      "properties": {
        "id": "0x2315460",
        "station_id": "559478",
        "station_label": "Neckartor"
      },
      "type": "Feature"
    },
    {
      "geometry": {
        "coordinates": [
          9.187460991453698,
          48.78271029411805
        ],
        "type": "Point"
      },
      "properties": {
        "id": "0x2315710",
        "station_id": "561199",
        "station_label": "Staatsgalerie"
      },
      "type": "Feature"
    },
    {
      "geometry": {
        "coordinates": [
          9.176042536072147,
          48.78003061948619
        ],
        "type": "Point"
      },
      "properties": {
        "id": "0x2315c50",
        "station_id": "562649",
        "station_label": "Friedrichsbau"
      },
      "type": "Feature"
    },
    {
      "geometry": {
        "coordinates": [
          9.167857667230068,
          48.7779916159767
        ],
        "type": "Point"
      },
      "properties": {
        "id": "0x2315f70",
        "station_id": "561299",
        "station_label": "Berliner Platz"
      },
      "type": "Feature"
    },
    {
      "geometry": {
        "coordinates": [
          9.173056531786992,
          48.77436806420384
        ],
        "type": "Point"
      },
      "properties": {
        "id": "0x2316380",
        "station_id": "561468",
        "station_label": "Stadtmitte"
      },
      "type": "Feature"
    },
    {
      "geometry": {
        "coordinates": [
          9.176080158956156,
          48.77032832310671
        ],
        "type": "Point"
      },
      "properties": {
        "id": "0x23166b0",
        "station_id": "561196",
        "station_label": "\u00d6sterreichischer Platz"
      },
      "type": "Feature"
    },
    {
      "geometry": {
        "coordinates": [
          9.168198851902755,
          48.764321545540255
        ],
        "type": "Point"
      },
      "properties": {
        "id": "0x23169b0",
        "station_id": "561363",
        "station_label": "Marienplatz"
      },
      "type": "Feature"
    },
    {
      "geometry": {
        "coordinates": [
          9.15990736400479,
          48.76280739413175
        ],
        "type": "Point"
      },
      "properties": {
        "id": "0x2316d70",
        "station_id": "561194",
        "station_label": "Erwin-Schoettle-Platz"
      },
      "type": "Feature"
    },
    {
      "geometry": {
        "coordinates": [
          9.253646331841413,
          48.731032897818224
        ],
        "type": "Point"
      },
      "properties": {
        "id": "0x231bae0",
        "station_id": "562247",
        "station_label": "Ruit, Ostfildern"
      },
      "type": "Feature"
    },
    {
      "geometry": {
        "coordinates": [
          9.262368321228099,
          48.726219841144925
        ],
        "type": "Point"
      },
      "properties": {
        "id": "0x231bc00",
        "station_id": "562249",
        "station_label": "Zinsholz, Ostfildern-Ruit"
      },
      "type": "Feature"
    },
    {
      "geometry": {
        "coordinates": [
          9.195618503202889,
          48.83376308371301
        ],
        "type": "Point"
      },
      "properties": {
        "id": "0x231bff0",
        "station_id": "561402",
        "station_label": "Tapachstr."
      },
      "type": "Feature"
    },
    {
      "geometry": {
        "coordinates": [
          9.273341851419396,
          48.715135937707394
        ],
        "type": "Point"
      },
      "properties": {
        "id": "0x2321040",
        "station_id": "562235",
        "station_label": "Scharnhauser Park Kreuzbrunnen, Ostfildern"
      },
      "type": "Feature"
    },
    {
      "geometry": {
        "coordinates": [
          9.289973279933816,
          48.71522469488042
        ],
        "type": "Point"
      },
      "properties": {
        "id": "0x23213a0",
        "station_id": "561806",
        "station_label": "Technische Akademie, Ostfildern-Nellingen"
      },
      "type": "Feature"
    },
    {
      "geometry": {
        "coordinates": [
          9.296245499999992,
          48.71585599999995
        ],
        "type": "Point"
      },
      "properties": {
        "id": "0x2321910",
        "station_id": "562237",
        "station_label": "Nellingen, Ostfildern"
      },
      "type": "Feature"
    },
    {
      "geometry": {
        "coordinates": [
          9.270924399999952,
          48.873563000000026
        ],
        "type": "Point"
      },
      "properties": {
        "id": "0x2321cd0",
        "station_id": "561032",
        "station_label": "Remseck"
      },
      "type": "Feature"
    },
    {
      "geometry": {
        "coordinates": [
          9.258051890958827,
          48.86681120701561
        ],
        "type": "Point"
      },
      "properties": {
        "id": "0x2321de0",
        "station_id": "560782",
        "station_label": "Aldingen Br\u00fcckenstr."
      },
      "type": "Feature"
    },
    {
      "geometry": {
        "coordinates": [
          9.253750712965845,
          48.86173262811702
        ],
        "type": "Point"
      },
      "properties": {
        "id": "0x2321fe0",
        "station_id": "561031",
        "station_label": "Aldingen M\u00fchle"
      },
      "type": "Feature"
    },
    {
      "geometry": {
        "coordinates": [
          9.249129568252245,
          48.85704388012014
        ],
        "type": "Point"
      },
      "properties": {
        "id": "0x2322360",
        "station_id": "562151",
        "station_label": "Aldingen Hornbach"
      },
      "type": "Feature"
    },
    {
      "geometry": {
        "coordinates": [
          9.230668943286071,
          48.841292538097136
        ],
        "type": "Point"
      },
      "properties": {
        "id": "0x2322680",
        "station_id": "561235",
        "station_label": "M\u00fchlhausen"
      },
      "type": "Feature"
    },
    {
      "geometry": {
        "coordinates": [
          9.225049448780283,
          48.839431065391516
        ],
        "type": "Point"
      },
      "properties": {
        "id": "0x2322b80",
        "station_id": "561313",
        "station_label": "Auwiesen"
      },
      "type": "Feature"
    },
    {
      "geometry": {
        "coordinates": [
          9.22216780582994,
          48.83632609222539
        ],
        "type": "Point"
      },
      "properties": {
        "id": "0x2326ef0",
        "station_id": "559352",
        "station_label": "Hofen"
      },
      "type": "Feature"
    },
    {
      "geometry": {
        "coordinates": [
          9.21645447962446,
          48.832821670857065
        ],
        "type": "Point"
      },
      "properties": {
        "id": "0x2327200",
        "station_id": "561236",
        "station_label": "Max-Eyth-See"
      },
      "type": "Feature"
    },
    {
      "geometry": {
        "coordinates": [
          9.212219257862392,
          48.82974422707243
        ],
        "type": "Point"
      },
      "properties": {
        "id": "0x2327580",
        "station_id": "560954",
        "station_label": "Wagrain\u00e4cker"
      },
      "type": "Feature"
    },
    {
      "geometry": {
        "coordinates": [
          9.213001890268444,
          48.82555770918346
        ],
        "type": "Point"
      },
      "properties": {
        "id": "0x2327880",
        "station_id": "559256",
        "station_label": "Elbestr."
      },
      "type": "Feature"
    },
    {
      "geometry": {
        "coordinates": [
          9.222249756580748,
          48.82410336906498
        ],
        "type": "Point"
      },
      "properties": {
        "id": "0x2327a40",
        "station_id": "559293",
        "station_label": "Freibergstr."
      },
      "type": "Feature"
    },
    {
      "geometry": {
        "coordinates": [
          9.226596458272535,
          48.82089966229807
        ],
        "type": "Point"
      },
      "properties": {
        "id": "0x2327d10",
        "station_id": "560955",
        "station_label": "M\u00fcnster Rathaus"
      },
      "type": "Feature"
    },
    {
      "geometry": {
        "coordinates": [
          9.222116085447023,
          48.81657793697838
        ],
        "type": "Point"
      },
      "properties": {
        "id": "0x2327fe0",
        "station_id": "559474",
        "station_label": "M\u00fcnster Viadukt"
      },
      "type": "Feature"
    },
    {
      "geometry": {
        "coordinates": [
          9.217583559732484,
          48.813954070296
        ],
        "type": "Point"
      },
      "properties": {
        "id": "0x2328340",
        "station_id": "559401",
        "station_label": "Kraftwerk M\u00fcnster"
      },
      "type": "Feature"
    },
    {
      "geometry": {
        "coordinates": [
          9.215520448970627,
          48.8096206724171
        ],
        "type": "Point"
      },
      "properties": {
        "id": "0x2328730",
        "station_id": "559470",
        "station_label": "M\u00fchlsteg"
      },
      "type": "Feature"
    },
    {
      "geometry": {
        "coordinates": [
          9.210541909102355,
          48.80598394527135
        ],
        "type": "Point"
      },
      "properties": {
        "id": "0x2328a00",
        "station_id": "561555",
        "station_label": "Rosensteinbr\u00fccke"
      },
      "type": "Feature"
    },
    {
      "geometry": {
        "coordinates": [
          9.207087732784805,
          48.80253468268392
        ],
        "type": "Point"
      },
      "properties": {
        "id": "0x2328d20",
        "station_id": "560952",
        "station_label": "Wilhelma"
      },
      "type": "Feature"
    },
    {
      "geometry": {
        "coordinates": [
          9.152206251277622,
          48.760186114596664
        ],
        "type": "Point"
      },
      "properties": {
        "id": "0x232d100",
        "station_id": "559202",
        "station_label": "Bihlplatz"
      },
      "type": "Feature"
    },
    {
      "geometry": {
        "coordinates": [
          9.14382913845421,
          48.75661403604229
        ],
        "type": "Point"
      },
      "properties": {
        "id": "0x232d480",
        "station_id": "561294",
        "station_label": "S\u00fcdheimer Platz"
      },
      "type": "Feature"
    },
    {
      "geometry": {
        "coordinates": [
          9.13837126748507,
          48.75348894569599
        ],
        "type": "Point"
      },
      "properties": {
        "id": "0x232d750",
        "station_id": "559345",
        "station_label": "Heslach Vogelrain"
      },
      "type": "Feature"
    },
    {
      "geometry": {
        "coordinates": [
          9.165630630416178,
          48.7203926013662
        ],
        "type": "Point"
      },
      "properties": {
        "id": "0x232dca0",
        "station_id": "561407",
        "station_label": "Landhaus"
      },
      "type": "Feature"
    },
    {
      "geometry": {
        "coordinates": [
          9.177923910393279,
          48.771792442749
        ],
        "type": "Point"
      },
      "properties": {
        "id": "0x232df30"
      },
      "type": "Feature"
    },
    {
      "geometry": {
        "coordinates": [
          9.179971180394121,
          48.77358820717991
        ],
        "type": "Point"
      },
      "properties": {
        "id": "0x232f620",
        "station_id": "561374",
        "station_label": "Rathaus"
      },
      "type": "Feature"
    },
    {
      "geometry": {
        "coordinates": [
          9.215870243778099,
          48.783791111031675
        ],
        "type": "Point"
      },
      "properties": {
        "id": "0x23318e0",
        "station_id": "559301",
        "station_label": "Gaisburg"
      },
      "type": "Feature"
    },
    {
      "geometry": {
        "coordinates": [
          9.180299736449484,
          48.75634835862269
        ],
        "type": "Point"
      },
      "properties": {
        "id": "0x2332990"
      },
      "type": "Feature"
    },
    {
      "geometry": {
        "coordinates": [
          9.179347768080557,
          48.75699402332986
        ],
        "type": "Point"
      },
      "properties": {
        "id": "0x2332aa0"
      },
      "type": "Feature"
    },
    {
      "geometry": {
        "coordinates": [
          9.231832372006657,
          48.803850743241554
        ],
        "type": "Point"
      },
      "properties": {
        "id": "0x233af30",
        "station_id": "555922",
        "station_label": "Ebitzweg"
      },
      "type": "Feature"
    },
    {
      "geometry": {
        "coordinates": [
          9.234438831230754,
          48.799745419272014
        ],
        "type": "Point"
      },
      "properties": {
        "id": "0x2341340",
        "station_id": "559390",
        "station_label": "Kienbachstr."
      },
      "type": "Feature"
    },
    {
      "geometry": {
        "coordinates": [
          9.24216357334907,
          48.79311498593185
        ],
        "type": "Point"
      },
      "properties": {
        "id": "0x2341640",
        "station_id": "559210",
        "station_label": "Blick"
      },
      "type": "Feature"
    },
    {
      "geometry": {
        "coordinates": [
          9.246595536737729,
          48.78761565121576
        ],
        "type": "Point"
      },
      "properties": {
        "id": "0x2341860",
        "station_id": "559263",
        "station_label": "Eszet"
      },
      "type": "Feature"
    },
    {
      "geometry": {
        "coordinates": [
          9.249014793934835,
          48.7840566795344
        ],
        "type": "Point"
      },
      "properties": {
        "id": "0x2341b60",
        "station_id": "559560",
        "station_label": "Schlotterbeckstr."
      },
      "type": "Feature"
    },
    {
      "geometry": {
        "coordinates": [
          9.249162840610783,
          48.77981910915313
        ],
        "type": "Point"
      },
      "properties": {
        "id": "0x2341ea0",
        "station_id": "561474",
        "station_label": "Untert\u00fcrkheim Bahnhof"
      },
      "type": "Feature"
    },
    {
      "geometry": {
        "coordinates": [
          9.243530050354991,
          48.77594006755252
        ],
        "type": "Point"
      },
      "properties": {
        "excluded_conn": [],
        "id": "0x23421e0",
        "station_id": "561302",
        "station_label": "Wasenstr."
      },
      "type": "Feature"
    },
    {
      "geometry": {
        "coordinates": [
          9.245301807121075,
          48.77165056812375
        ],
        "type": "Point"
      },
      "properties": {
        "id": "0x23425c0",
        "station_id": "559652",
        "station_label": "Wangen Marktplatz"
      },
      "type": "Feature"
    },
    {
      "geometry": {
        "coordinates": [
          9.24899481482602,
          48.766856835209786
        ],
        "type": "Point"
      },
      "properties": {
        "id": "0x2342790",
        "station_id": "559397",
        "station_label": "Hedelfinger Str."
      },
      "type": "Feature"
    },
    {
      "geometry": {
        "coordinates": [
          9.254349537953319,
          48.759900077753315
        ],
        "type": "Point"
      },
      "properties": {
        "id": "0x2342aa0",
        "station_id": "560951",
        "station_label": "Hedelfingen"
      },
      "type": "Feature"
    },
    {
      "geometry": {
        "coordinates": [
          9.186681078442136,
          48.773674345060954
        ],
        "type": "Point"
      },
      "properties": {
        "id": "0x234a090"
      },
      "type": "Feature"
    },
    {
      "geometry": {
        "coordinates": [
          9.192109062758218,
          48.83222315474732
        ],
        "type": "Point"
      },
      "properties": {
        "id": "0x234a550",
        "station_id": "559299",
        "station_label": "F\u00fcrfelder Str."
      },
      "type": "Feature"
    },
    {
      "geometry": {
        "coordinates": [
          9.201551440117381,
          48.83743114501809
        ],
        "type": "Point"
      },
      "properties": {
        "id": "0x234a8b0",
        "station_id": "560956",
        "station_label": "Himmelsleiter"
      },
      "type": "Feature"
    },
    {
      "geometry": {
        "coordinates": [
          9.206583906352881,
          48.84067107954351
        ],
        "type": "Point"
      },
      "properties": {
        "id": "0x234abd0",
        "station_id": "559604",
        "station_label": "Suttnerstr."
      },
      "type": "Feature"
    },
    {
      "geometry": {
        "coordinates": [
          9.210622641547015,
          48.84414038921191
        ],
        "type": "Point"
      },
      "properties": {
        "id": "0x234aef0",
        "station_id": "561237",
        "station_label": "Freiberg"
      },
      "type": "Feature"
    },
    {
      "geometry": {
        "coordinates": [
          9.218005858099778,
          48.844392142260595
        ],
        "type": "Point"
      },
      "properties": {
        "id": "0x234f120",
        "station_id": "555435",
        "station_label": "M\u00f6nchfeld"
      },
      "type": "Feature"
    },
    {
      "geometry": {
        "coordinates": [
          9.235999117586742,
          48.80675220294125
        ],
        "type": "Point"
      },
      "properties": {
        "id": "0x2356ee0",
        "station_id": "561431",
        "station_label": "N\u00fcrnberger Str."
      },
      "type": "Feature"
    },
    {
      "geometry": {
        "coordinates": [
          9.201773093620863,
          48.710256982647095
        ],
        "type": "Point"
      },
      "properties": {
        "id": "0x2357df0",
        "station_id": "561252",
        "station_label": "Plieningen"
      },
      "type": "Feature"
    },
    {
      "geometry": {
        "coordinates": [
          9.161774979657435,
          48.72170865283974
        ],
        "type": "Point"
      },
      "properties": {
        "id": "0x2358fa0",
        "station_id": "562651",
        "station_label": "Salz\u00e4cker"
      },
      "type": "Feature"
    },
    {
      "geometry": {
        "coordinates": [
          9.156828378138547,
          48.7242144332397
        ],
        "type": "Point"
      },
      "properties": {
        "id": "0x235f120",
        "station_id": "559518",
        "station_label": "Plieninger Str."
      },
      "type": "Feature"
    },
    {
      "geometry": {
        "coordinates": [
          9.153034603404665,
          48.72877104066766
        ],
        "type": "Point"
      },
      "properties": {
        "id": "0x235f3e0",
        "station_id": "559580",
        "station_label": "Sigmaringer Str."
      },
      "type": "Feature"
    },
    {
      "geometry": {
        "coordinates": [
          9.145873224709803,
          48.774641188178414
        ],
        "type": "Point"
      },
      "properties": {
        "id": "0x235fb20",
        "station_id": "560950",
        "station_label": "Vogelsang"
      },
      "type": "Feature"
    },
    {
      "geometry": {
        "coordinates": [
          9.150880603419836,
          48.77483916826676
        ],
        "type": "Point"
      },
      "properties": {
        "id": "0x235fc30",
        "station_id": "559177",
        "station_label": "Arndt-/Spittastr."
      },
      "type": "Feature"
    },
    {
      "geometry": {
        "coordinates": [
          9.15525095561677,
          48.77500579701574
        ],
        "type": "Point"
      },
      "properties": {
        "id": "0x235fe30",
        "station_id": "561228",
        "station_label": "Schwab-/Bebelstr."
      },
      "type": "Feature"
    },
    {
      "geometry": {
        "coordinates": [
          9.162400502725712,
          48.77631426540543
        ],
        "type": "Point"
      },
      "properties": {
        "id": "0x2360060",
        "station_id": "561230",
        "station_label": "Schloss-/Johannesstr."
      },
      "type": "Feature"
    },
    {
      "geometry": {
        "coordinates": [
          9.206148656439996,
          48.78900718226022
        ],
        "type": "Point"
      },
      "properties": {
        "id": "0x2360890",
        "station_id": "559193",
        "station_label": "Bergfriedhof"
      },
      "type": "Feature"
    },
    {
      "geometry": {
        "coordinates": [
          9.147476035513359,
          48.73066808318785
        ],
        "type": "Point"
      },
      "properties": {
        "id": "0x23609a0"
      },
      "type": "Feature"
    },
    {
      "geometry": {
        "coordinates": [
          9.212078974735073,
          48.78888588215747
        ],
        "type": "Point"
      },
      "properties": {
        "id": "0x2360e50",
        "station_id": "559524",
        "station_label": "Raitelsberg"
      },
      "type": "Feature"
    },
    {
      "geometry": {
        "coordinates": [
          9.217564268897027,
          48.78716008650685
        ],
        "type": "Point"
      },
      "properties": {
        "id": "0x2363170",
        "station_id": "561231",
        "station_label": "Schlachthof"
      },
      "type": "Feature"
    },
    {
      "geometry": {
        "coordinates": [
          9.222503099616358,
          48.782420556765764
        ],
        "type": "Point"
      },
      "properties": {
        "id": "0x2363530",
        "station_id": "560934",
        "station_label": "Wangener-/Landhausstr."
      },
      "type": "Feature"
    },
    {
      "geometry": {
        "coordinates": [
          9.227065434136492,
          48.78140226773485
        ],
        "type": "Point"
      },
      "properties": {
        "id": "0x23639c0",
        "station_id": "561301",
        "station_label": "Brendle"
      },
      "type": "Feature"
    },
    {
      "geometry": {
        "coordinates": [
          9.2333461658644,
          48.77812919589014
        ],
        "type": "Point"
      },
      "properties": {
        "id": "0x2363d90",
        "station_id": "559366",
        "station_label": "Im Degen"
      },
      "type": "Feature"
    },
    {
      "geometry": {
        "coordinates": [
          9.237556367507619,
          48.775750820555935
        ],
        "type": "Point"
      },
      "properties": {
        "id": "0x23640d0",
        "station_id": "559373",
        "station_label": "Inselstr."
      },
      "type": "Feature"
    },
    {
      "geometry": {
        "coordinates": [
          9.212022614220169,
          48.80013232949242
        ],
        "type": "Point"
      },
      "properties": {
        "id": "0x2364720",
        "station_id": "559450",
        "station_label": "Mercedesstr."
      },
      "type": "Feature"
    },
    {
      "geometry": {
        "coordinates": [
          9.218983651857586,
          48.80529011591001
        ],
        "type": "Point"
      },
      "properties": {
        "id": "0x2364a30",
        "station_id": "559233",
        "station_label": "Daimlerplatz"
      },
      "type": "Feature"
    },
    {
      "geometry": {
        "coordinates": [
          9.222237002641524,
          48.8091008993788
        ],
        "type": "Point"
      },
      "properties": {
        "id": "0x2364e60",
        "station_id": "559407",
        "station_label": "Kursaal"
      },
      "type": "Feature"
    },
    {
      "geometry": {
        "coordinates": [
          9.228854671298024,
          48.81245409219648
        ],
        "type": "Point"
      },
      "properties": {
        "id": "0x2365230",
        "station_id": "559316",
        "station_label": "Gnesener Str."
      },
      "type": "Feature"
    },
    {
      "geometry": {
        "coordinates": [
          9.112753424424003,
          48.7299557167604
        ],
        "type": "Point"
      },
      "properties": {
        "id": "0x2365420",
        "station_id": "561189",
        "station_label": "Schillerplatz-Vaihingen"
      },
      "type": "Feature"
    },
    {
      "geometry": {
        "coordinates": [
          9.11879693562762,
          48.733237525282206
        ],
        "type": "Point"
      },
      "properties": {
        "id": "0x2365780",
        "station_id": "559639",
        "station_label": "Vaihingen Viadukt"
      },
      "type": "Feature"
    },
    {
      "geometry": {
        "coordinates": [
          9.127996725343257,
          48.73738376477512
        ],
        "type": "Point"
      },
      "properties": {
        "id": "0x2365b00",
        "station_id": "559259",
        "station_label": "Engelboldstr."
      },
      "type": "Feature"
    },
    {
      "geometry": {
        "coordinates": [
          9.13004548162075,
          48.73973589689718
        ],
        "type": "Point"
      },
      "properties": {
        "id": "0x2365e60",
        "station_id": "559377",
        "station_label": "Kaltental"
      },
      "type": "Feature"
    },
    {
      "geometry": {
        "coordinates": [
          9.134601504810272,
          48.74507901835174
        ],
        "type": "Point"
      },
      "properties": {
        "id": "0x23661e0",
        "station_id": "561191",
        "station_label": "Waldeck"
      },
      "type": "Feature"
    },
    {
      "geometry": {
        "coordinates": [
          9.235247657180986,
          48.815128999099706
        ],
        "type": "Point"
      },
      "properties": {
        "id": "0x236a950",
        "station_id": "561240",
        "station_label": "Obere Ziegelei"
      },
      "type": "Feature"
    },
    {
      "geometry": {
        "coordinates": [
          9.237115307740366,
          48.819021012465726
        ],
        "type": "Point"
      },
      "properties": {
        "id": "0x236ac70",
        "station_id": "555066",
        "station_label": "Hauptfriedhof"
      },
      "type": "Feature"
    },
    {
      "geometry": {
        "coordinates": [
          9.231593518048106,
          48.828535489200355
        ],
        "type": "Point"
      },
      "properties": {
        "id": "0x236b010",
        "station_id": "559598",
        "station_label": "Steinhaldenfeld"
      },
      "type": "Feature"
    },
    {
      "geometry": {
        "coordinates": [
          9.114773544314486,
          48.73175968653935
        ],
        "type": "Point"
      },
      "properties": {
        "id": "0x236b200",
        "station_id": "559271",
        "station_label": "Fauststr."
      },
      "type": "Feature"
    },
    {
      "geometry": {
        "coordinates": [
          9.236272789264476,
          48.832018359979436
        ],
        "type": "Point"
      },
      "properties": {
        "id": "0x236b4e0",
        "station_id": "555341",
        "station_label": "Neugereut"
      },
      "type": "Feature"
    },
    {
      "geometry": {
        "coordinates": [
          9.243396535533515,
          48.80848429201617
        ],
        "type": "Point"
      },
      "properties": {
        "id": "0x236ed30",
        "station_id": "559296",
        "station_label": "Antwerpener Str."
      },
      "type": "Feature"
    },
    {
      "geometry": {
        "coordinates": [
          9.252671514231967,
          48.80993751600405
        ],
        "type": "Point"
      },
      "properties": {
        "id": "0x236f040",
        "station_id": "559201",
        "station_label": "Beskidenstr."
      },
      "type": "Feature"
    },
    {
      "geometry": {
        "coordinates": [
          9.230870443888348,
          48.80592070252728
        ],
        "type": "Point"
      },
      "properties": {
        "id": "0x236f710",
        "station_id": "560931",
        "station_label": "Augsburger Platz"
      },
      "type": "Feature"
    },
    {
      "geometry": {
        "coordinates": [
          9.261994641183538,
          48.811744139098245
        ],
        "type": "Point"
      },
      "properties": {
        "id": "0x236fa50",
        "station_id": "556240",
        "station_label": "H\u00f6henstr., Fellbach"
      },
      "type": "Feature"
    },
    {
      "geometry": {
        "coordinates": [
          9.269362477992216,
          48.81221205427466
        ],
        "type": "Point"
      },
      "properties": {
        "id": "0x236fd50",
        "station_id": "560932",
        "station_label": "Esslinger Str., Fellbach"
      },
      "type": "Feature"
    },
    {
      "geometry": {
        "coordinates": [
          9.27053315283614,
          48.80889624383045
        ],
        "type": "Point"
      },
      "properties": {
        "id": "0x2370090",
        "station_id": "562408",
        "station_label": "Schwabenlandhalle, Fellbach"
      },
      "type": "Feature"
    },
    {
      "geometry": {
        "coordinates": [
          9.276771499999978,
          48.809020000000004
        ],
        "type": "Point"
      },
      "properties": {
        "id": "0x2370340",
        "station_id": "561200",
        "station_label": "Lutherkirche, Fellbach"
      },
      "type": "Feature"
    },
    {
      "geometry": {
        "coordinates": [
          9.12212983925129,
          48.778581424395405
        ],
        "type": "Point"
      },
      "properties": {
        "id": "0x23706c0",
        "station_id": "559214",
        "station_label": "Botnang"
      },
      "type": "Feature"
    },
    {
      "geometry": {
        "coordinates": [
          9.126833576125566,
          48.77922666171572
        ],
        "type": "Point"
      },
      "properties": {
        "id": "0x2374800",
        "station_id": "559258",
        "station_label": "Eltinger Str."
      },
      "type": "Feature"
    },
    {
      "geometry": {
        "coordinates": [
          9.132118579631848,
          48.77941174898679
        ],
        "type": "Point"
      },
      "properties": {
        "id": "0x2374a40",
        "station_id": "559454",
        "station_label": "Mill\u00f6ckerstr."
      },
      "type": "Feature"
    },
    {
      "geometry": {
        "coordinates": [
          9.133298526369153,
          48.77719217774007
        ],
        "type": "Point"
      },
      "properties": {
        "id": "0x2374cf0",
        "station_id": "559192",
        "station_label": "Beethovenstr."
      },
      "type": "Feature"
    },
    {
      "geometry": {
        "coordinates": [
          9.134344605256508,
          48.77401480764385
        ],
        "type": "Point"
      },
      "properties": {
        "id": "0x2375050",
        "station_id": "561229",
        "station_label": "Lindpaintnerstr."
      },
      "type": "Feature"
    },
    {
      "geometry": {
        "coordinates": [
          9.141435911372398,
          48.77231054324647
        ],
        "type": "Point"
      },
      "properties": {
        "id": "0x2375350",
        "station_id": "560949",
        "station_label": "Herderplatz"
      },
      "type": "Feature"
    },
    {
      "geometry": {
        "coordinates": [
          9.18660801182647,
          48.78197070095238
        ],
        "type": "Point"
      },
      "properties": {
        "excluded_conn": [
          {
            "node_from": "0x22d71a0",
            "node_to": "0x25af4d0",
            "line": "0x130e850"
          },
          {
            "node_from": "0x25af4d0",
            "node_to": "0x22d71a0",
            "line": "0x130e850"
          }
        ],
        "id": "0x2375670"
      },
      "type": "Feature"
    },
    {
      "geometry": {
        "coordinates": [
          9.211229714452115,
          48.78498405468902
        ],
        "type": "Point"
      },
      "properties": {
        "id": "0x2375ac0",
        "station_id": "555735",
        "station_label": "Ostheim Leo-Vetter-Bad"
      },
      "type": "Feature"
    },
    {
      "geometry": {
        "coordinates": [
          9.1822153036887,
          48.79404657878402
        ],
        "type": "Point"
      },
      "properties": {
        "id": "0x2376970"
      },
      "type": "Feature"
    },
    {
      "geometry": {
        "coordinates": [
          9.177571511241966,
          48.77238271790804
        ],
        "type": "Point"
      },
      "properties": {
        "id": "0x23772f0"
      },
      "type": "Feature"
    },
    {
      "geometry": {
        "coordinates": [
          9.19547300203607,
          48.7892066336038
        ],
        "type": "Point"
      },
      "properties": {
        "id": "0x237ca30"
      },
      "type": "Feature"
    },
    {
      "geometry": {
        "coordinates": [
          9.20764012653348,
          48.78646076692522
        ],
        "type": "Point"
      },
      "properties": {
        "id": "0x238ae30",
        "station_id": "561202",
        "station_label": "Ostendplatz"
      },
      "type": "Feature"
    },
    {
      "geometry": {
        "coordinates": [
          9.165036213220965,
          48.78191213100362
        ],
        "type": "Point"
      },
      "properties": {
        "id": "0x238b530",
        "station_id": "561204",
        "station_label": "Rosenberg-/Seidenstr."
      },
      "type": "Feature"
    },
    {
      "geometry": {
        "coordinates": [
          9.160719364213612,
          48.78444151187108
        ],
        "type": "Point"
      },
      "properties": {
        "id": "0x238bb80",
        "station_id": "559548",
        "station_label": "Russische Kirche"
      },
      "type": "Feature"
    },
    {
      "geometry": {
        "coordinates": [
          9.15831114984657,
          48.78172944513724
        ],
        "type": "Point"
      },
      "properties": {
        "id": "0x238bdd0",
        "station_id": "561203",
        "station_label": "H\u00f6lderlinplatz"
      },
      "type": "Feature"
    },
    {
      "geometry": {
        "coordinates": [
          9.21630713687385,
          48.80320987067098
        ],
        "type": "Point"
      },
      "properties": {
        "id": "0x2394d40"
      },
      "type": "Feature"
    },
    {
      "geometry": {
        "coordinates": [
          9.182764011871202,
          48.80971117392254
        ],
        "type": "Point"
      },
      "properties": {
        "id": "0x23a96a0"
      },
      "type": "Feature"
    },
    {
      "geometry": {
        "coordinates": [
          9.18251658621866,
          48.799341635863215
        ],
        "type": "Point"
      },
      "properties": {
        "id": "0x23b7330"
      },
      "type": "Feature"
    },
    {
      "geometry": {
        "coordinates": [
          9.142085093646992,
          48.71038507678898
        ],
        "type": "Point"
      },
      "properties": {
        "id": "0x23e5c30"
      },
      "type": "Feature"
    },
    {
      "geometry": {
        "coordinates": [
          9.185178995061065,
          48.80829800457035
        ],
        "type": "Point"
      },
      "properties": {
        "id": "0x24cfb30"
      },
      "type": "Feature"
    },
    {
      "geometry": {
        "coordinates": [
          9.179235601527145,
          48.784011935538835
        ],
        "type": "Point"
      },
      "properties": {
        "id": "0x24d9a60"
      },
      "type": "Feature"
    },
    {
      "geometry": {
        "coordinates": [
          9.229624277914702,
          48.80595536598588
        ],
        "type": "Point"
      },
      "properties": {
        "id": "0x24e5a10"
      },
      "type": "Feature"
    },
    {
      "geometry": {
        "coordinates": [
          9.220591603607764,
          48.78294531215165
        ],
        "type": "Point"
      },
      "properties": {
        "id": "0x251eb90"
      },
      "type": "Feature"
    },
    {
      "geometry": {
        "coordinates": [
          9.212976167375448,
          48.8004086189914
        ],
        "type": "Point"
      },
      "properties": {
        "id": "0x2543c60"
      },
      "type": "Feature"
    },
    {
      "geometry": {
        "coordinates": [
          9.178493847523766,
          48.77233389732847
        ],
        "type": "Point"
      },
      "properties": {
        "id": "0x254d070"
      },
      "type": "Feature"
    },
    {
      "geometry": {
        "coordinates": [
          9.18035639429453,
          48.75723295861033
        ],
        "type": "Point"
      },
      "properties": {
        "id": "0x25625d0"
      },
      "type": "Feature"
    },
    {
      "geometry": {
        "coordinates": [
          9.1131654168807,
          48.7273126790424
        ],
        "type": "Point"
      },
      "properties": {
        "id": "0x2570290"
      },
      "type": "Feature"
    },
    {
      "geometry": {
        "coordinates": [
          9.136487394658529,
          48.726428035652205
        ],
        "type": "Point"
      },
      "properties": {
        "id": "0x257e530"
      },
      "type": "Feature"
    },
    {
      "geometry": {
        "coordinates": [
          9.206711073858491,
          48.78897717814774
        ],
        "type": "Point"
      },
      "properties": {
        "id": "0x257f020"
      },
      "type": "Feature"
    },
    {
      "geometry": {
        "coordinates": [
          9.181801641608667,
          48.78283460158879
        ],
        "type": "Point"
      },
      "properties": {
        "id": "0x25af4d0"
      },
      "type": "Feature"
    },
    {
      "geometry": {
        "coordinates": [
          [
            9.215672357820099,
            48.8028347096564
          ],
          [
            9.215786749555535,
            48.802900568338664
          ],
          [
            9.215901116977443,
            48.80296643988433
          ],
          [
            9.216011520527912,
            48.80303445459082
          ],
          [
            9.2161217864404,
            48.80310249618986
          ],
          [
            9.216232624909315,
            48.80316981586177
          ],
          [
            9.216232699230533,
            48.80316985800844
          ]
        ],
        "type": "LineString"
      },
      "properties": {
        "from": "0x12f5230",
        "lines": [
          {
            "color": "f59eb2",
            "id": "0x130e610",
            "label": "U13"
          },
          {
            "color": "cd9c72",
            "id": "0x130e070",
            "label": "U1"
          },
          {
            "color": "f5892d",
            "id": "0x130f0f0",
            "label": "U2"
          }
        ],
        "to": "0x2394d40"
      },
      "type": "Feature"
    },
    {
      "geometry": {
        "coordinates": [
          [
            9.199952709116802,
            48.76125766319731
          ],
          [
            9.200061150866256,
            48.76135197163443
          ],
          [
            9.20016959261562,
            48.76144627989455
          ],
          [
            9.20027791499649,
            48.76154063846592
          ],
          [
            9.200360737635854,
            48.76164384147384
          ],
          [
            9.200392040035956,
            48.7617603634912
          ],
          [
            9.200423304217773,
            48.761876889883446
          ],
          [
            9.200454568399591,
            48.76199341600529
          ],
          [
            9.200485832581318,
            48.762109941856835
          ],
          [
            9.200517096763136,
            48.76222646743798
          ],
          [
            9.200548360944955,
            48.76234299274885
          ],
          [
            9.2006108893085,
            48.76257604255948
          ],
          [
            9.200642153490318,
            48.762692567059254
          ],
          [
            9.200673417672045,
            48.76280909128873
          ],
          [
            9.200704681853862,
            48.762925615247816
          ],
          [
            9.20073594603568,
            48.76304213893662
          ],
          [
            9.200798474399225,
            48.76327518550312
          ],
          [
            9.200829738581042,
            48.76339170838082
          ],
          [
            9.20086100276286,
            48.76350823098824
          ],
          [
            9.200892266944589,
            48.76362475332533
          ],
          [
            9.200954795308222,
            48.7638577971884
          ],
          [
            9.200986059490042,
            48.76397431871439
          ],
          [
            9.201017323671769,
            48.7640908399701
          ],
          [
            9.201048587853586,
            48.76420736095541
          ],
          [
            9.201079852035404,
            48.764323881670435
          ],
          [
            9.201111116217131,
            48.764440402115056
          ],
          [
            9.201204908762493,
            48.764789961826985
          ],
          [
            9.201236172944313,
            48.76490648119025
          ],
          [
            9.201267437126129,
            48.76502300028322
          ],
          [
            9.201298701307946,
            48.765139519105794
          ],
          [
            9.201329459058414,
            48.76525609163727
          ],
          [
            9.201356075716367,
            48.76537307686821
          ],
          [
            9.201377520675674,
            48.76549042046349
          ],
          [
            9.20139755912127,
            48.76560782193179
          ],
          [
            9.201412148762387,
            48.76572506554363
          ],
          [
            9.201408422549779,
            48.76584126173418
          ],
          [
            9.201352650900308,
            48.76595195328226
          ],
          [
            9.201284973577257,
            48.76606079494755
          ],
          [
            9.201204036355701,
            48.7661663829726
          ],
          [
            9.201120023289944,
            48.766270952393036
          ],
          [
            9.201033925799992,
            48.766370768017524
          ]
        ],
        "type": "LineString"
      },
      "properties": {
        "from": "0x12f5620",
        "lines": [
          {
            "color": "015aaa",
            "id": "0x130ed90",
            "label": "U15"
          }
        ],
        "to": "0x12f5ff0"
      },
      "type": "Feature"
    },
    {
      "geometry": {
        "coordinates": [
          [
            9.201033925799992,
            48.766370768017524
          ],
          [
            9.200928941779704,
            48.76646465222635
          ],
          [
            9.200807169146508,
            48.766547428939596
          ],
          [
            9.20065607256243,
            48.76660997652277
          ],
          [
            9.20049756529318,
            48.76666479976175
          ],
          [
            9.200337805058354,
            48.76671795719969
          ],
          [
            9.200172542298265,
            48.766761754979406
          ],
          [
            9.199999585790714,
            48.766790811150166
          ],
          [
            9.199825532222718,
            48.766817743205294
          ],
          [
            9.199650368863713,
            48.76684184873925
          ],
          [
            9.199472936845483,
            48.76685532406001
          ],
          [
            9.199295433267185,
            48.76686715010604
          ],
          [
            9.199117310036396,
            48.766858590624004
          ],
          [
            9.19893903366962,
            48.76684798742689
          ],
          [
            9.198760757302933,
            48.76683738422747
          ],
          [
            9.198582480936157,
            48.766826781025884
          ],
          [
            9.19840420456938,
            48.76681617782205
          ],
          [
            9.198047651835918,
            48.76679497140761
          ],
          [
            9.197869375469232,
            48.76678436819701
          ],
          [
            9.197156270002218,
            48.766741955332364
          ],
          [
            9.196977965523832,
            48.76673154507344
          ],
          [
            9.196799337012074,
            48.76672444674906
          ],
          [
            9.196620659409723,
            48.76672062574183
          ],
          [
            9.196441979936807,
            48.76671698871048
          ],
          [
            9.196263300463983,
            48.766713351678845
          ],
          [
            9.19608462099116,
            48.76670971464691
          ],
          [
            9.195906091808729,
            48.766708416002785
          ],
          [
            9.195736915740316,
            48.766744686281065
          ],
          [
            9.195568582791013,
            48.76678403421783
          ],
          [
            9.195403681567525,
            48.76682988186811
          ],
          [
            9.195241400326736,
            48.76687955785204
          ],
          [
            9.195079246755054,
            48.76692941680738
          ],
          [
            9.194917093183282,
            48.76697927571328
          ],
          [
            9.194761253796788,
            48.767035745298124
          ],
          [
            9.19463415751177,
            48.767118221206594
          ],
          [
            9.19451667723103,
            48.76720720053599
          ],
          [
            9.194401389052576,
            48.76729744471885
          ],
          [
            9.194286197588363,
            48.76738774236082
          ],
          [
            9.194171013390351,
            48.76747804375966
          ],
          [
            9.19406198736972,
            48.76757136423639
          ],
          [
            9.194056554202664,
            48.767688625115646
          ],
          [
            9.194052232876125,
            48.76792457751041
          ],
          [
            9.1940500722129,
            48.768042553292055
          ],
          [
            9.194049663099278,
            48.76816053053664
          ],
          [
            9.194125979717684,
            48.76826486503809
          ],
          [
            9.194220833062635,
            48.76836491353178
          ],
          [
            9.194316034564855,
            48.76846482749298
          ],
          [
            9.194411236067078,
            48.76856474125537
          ],
          [
            9.194506437569208,
            48.76866465481896
          ],
          [
            9.19460163907143,
            48.76876456818375
          ],
          [
            9.19469684057365,
            48.76886448134972
          ],
          [
            9.194792042075871,
            48.768964394316974
          ],
          [
            9.194887243578092,
            48.76906430708535
          ],
          [
            9.194982445080225,
            48.76916421965493
          ],
          [
            9.195077646582444,
            48.7692641320257
          ],
          [
            9.195172848084665,
            48.76936404419767
          ],
          [
            9.195268049586886,
            48.769463956170846
          ],
          [
            9.195298573170634,
            48.76949598998757
          ]
        ],
        "type": "LineString"
      },
      "properties": {
        "from": "0x12f5ff0",
        "lines": [
          {
            "color": "015aaa",
            "id": "0x130ed90",
            "label": "U15"
          }
        ],
        "to": "0x12f6250"
      },
      "type": "Feature"
    },
    {
      "geometry": {
        "coordinates": [
          [
            9.195298573170634,
            48.76949598998757
          ],
          [
            9.195394066700063,
            48.76959620817351
          ],
          [
            9.19548956022949,
            48.76969642615942
          ],
          [
            9.195585053758919,
            48.76979664394536
          ],
          [
            9.195680547288347,
            48.76989686153123
          ],
          [
            9.195776040817776,
            48.76999707891707
          ],
          [
            9.195736704119604,
            48.77011018720712
          ],
          [
            9.1956804053398,
            48.77022256073731
          ],
          [
            9.195624106559997,
            48.770334934016056
          ],
          [
            9.1955115090003,
            48.77055967981896
          ],
          [
            9.195398911440693,
            48.77078442461595
          ],
          [
            9.19534261266089,
            48.77089679663717
          ],
          [
            9.195286313881086,
            48.77100916840698
          ],
          [
            9.195230015101282,
            48.77112153992522
          ],
          [
            9.19517371632139,
            48.77123391119197
          ],
          [
            9.195117417541585,
            48.77134628220728
          ],
          [
            9.195061118761782,
            48.771458652971056
          ],
          [
            9.195004819981978,
            48.77157102348333
          ],
          [
            9.194948521202177,
            48.77168339374417
          ],
          [
            9.194892222468187,
            48.77179576376347
          ],
          [
            9.194835934506164,
            48.77190813586671
          ],
          [
            9.194780393540105,
            48.772020658825554
          ],
          [
            9.194765639532443,
            48.7721383698933
          ],
          [
            9.194755936304444,
            48.77225653329319
          ],
          [
            9.194697716936714,
            48.772965507852625
          ],
          [
            9.194688013708715,
            48.77308366930585
          ],
          [
            9.194678310480803,
            48.77320183048095
          ],
          [
            9.194668607252803,
            48.77331999137804
          ],
          [
            9.194662589967464,
            48.773393266630606
          ]
        ],
        "type": "LineString"
      },
      "properties": {
        "from": "0x12f6250",
        "lines": [
          {
            "color": "015aaa",
            "id": "0x130ed90",
            "label": "U15"
          }
        ],
        "to": "0x12f66b0"
      },
      "type": "Feature"
    },
    {
      "geometry": {
        "coordinates": [
          [
            9.153055282557737,
            48.71031561927995
          ],
          [
            9.152551522316019,
            48.710189610080356
          ],
          [
            9.152383602235476,
            48.710147606943714
          ],
          [
            9.151879841993757,
            48.710021597323305
          ],
          [
            9.151711921913215,
            48.70997959404641
          ],
          [
            9.151544001832672,
            48.709937590734434
          ],
          [
            9.151376081752039,
            48.709895587387415
          ],
          [
            9.150872321510409,
            48.70976957713588
          ],
          [
            9.150704401429866,
            48.70972757364859
          ],
          [
            9.150536481349235,
            48.709685570126254
          ],
          [
            9.150368561268692,
            48.709643566568786
          ],
          [
            9.149864801026974,
            48.70951755568619
          ],
          [
            9.149696880946431,
            48.70947555198854
          ],
          [
            9.149528960865888,
            48.70943354825575
          ],
          [
            9.149361040785346,
            48.709391544487964
          ],
          [
            9.149193120704712,
            48.709349540685125
          ],
          [
            9.149016779425299,
            48.70933798480393
          ],
          [
            9.148302300697871,
            48.70938678632611
          ],
          [
            9.147945061334067,
            48.70941118706949
          ],
          [
            9.147766441652209,
            48.70942338743673
          ],
          [
            9.147409202288495,
            48.70944778816232
          ],
          [
            9.147051962924781,
            48.70947218887608
          ],
          [
            9.146873343242833,
            48.709484389228514
          ],
          [
            9.146694723560977,
            48.709496589578
          ],
          [
            9.146337484197263,
            48.709520990268096
          ],
          [
            9.146160533428896,
            48.709538352760845
          ],
          [
            9.14598622159858,
            48.70956387779936
          ],
          [
            9.14581220681912,
            48.70959096623354
          ],
          [
            9.145642792862269,
            48.709630209610694
          ],
          [
            9.14530404489629,
            48.70970890734229
          ],
          [
            9.1451346709133,
            48.70974825616192
          ],
          [
            9.14496529693031,
            48.709787604950805
          ],
          [
            9.144795922947322,
            48.70982695370889
          ],
          [
            9.143779679049205,
            48.71006304561131
          ],
          [
            9.143610305066217,
            48.710102394154006
          ],
          [
            9.143271557100238,
            48.7101810911471
          ],
          [
            9.143102183117248,
            48.71022043959749
          ],
          [
            9.14293280913417,
            48.71025978801711
          ],
          [
            9.14276550250972,
            48.71030132957576
          ],
          [
            9.142621495877677,
            48.71036933525543
          ],
          [
            9.142499958735316,
            48.710456419362245
          ],
          [
            9.142363811984447,
            48.710554146627786
          ]
        ],
        "type": "LineString"
      },
      "properties": {
        "from": "0x12f64c0",
        "lines": [
          {
            "color": "ed028c",
            "id": "0x130eeb0",
            "label": "U6"
          }
        ],
        "to": "0x23e5c30"
      },
      "type": "Feature"
    },
    {
      "geometry": {
        "coordinates": [
          [
            9.194662589967464,
            48.773393266630606
          ],
          [
            9.194648102439732,
            48.77351113782992
          ],
          [
            9.19452837352456,
            48.77359937205201
          ],
          [
            9.194408644609391,
            48.77368760611905
          ],
          [
            9.19416918677914,
            48.773864073787834
          ],
          [
            9.193929728948799,
            48.77404054083641
          ],
          [
            9.19381000003363,
            48.77412877412804
          ],
          [
            9.193690271118458,
            48.77421700726465
          ],
          [
            9.193570542203288,
            48.77430524024621
          ],
          [
            9.193091626542698,
            48.77465817062167
          ],
          [
            9.192971897627526,
            48.77474640282788
          ],
          [
            9.192852168712356,
            48.774834634878964
          ],
          [
            9.192732439797185,
            48.774922866775036
          ],
          [
            9.192612710882104,
            48.77501109851604
          ],
          [
            9.192492981966934,
            48.77509933010198
          ],
          [
            9.192373253051764,
            48.77518756153286
          ],
          [
            9.192253524136593,
            48.77527579280861
          ],
          [
            9.192133795221423,
            48.77536402392934
          ],
          [
            9.192014066306252,
            48.77545225489501
          ],
          [
            9.191894337391084,
            48.77554048570562
          ],
          [
            9.191774608476003,
            48.7756287163611
          ],
          [
            9.191765369313815,
            48.7756355248798
          ]
        ],
        "type": "LineString"
      },
      "properties": {
        "from": "0x12f66b0",
        "lines": [
          {
            "color": "015aaa",
            "id": "0x130ed90",
            "label": "U15"
          }
        ],
        "to": "0x12f6a80"
      },
      "type": "Feature"
    },
    {
      "geometry": {
        "coordinates": [
          [
            9.191765369313815,
            48.7756355248798
          ],
          [
            9.191645966552041,
            48.77572351503895
          ],
          [
            9.191526582042865,
            48.775811515789975
          ],
          [
            9.191449350826582,
            48.77591407896595
          ],
          [
            9.191446664188259,
            48.77615011701975
          ],
          [
            9.191445332690883,
            48.776268135505724
          ],
          [
            9.19144510553848,
            48.77638613375253
          ],
          [
            9.191489819347305,
            48.77649922330811
          ],
          [
            9.191551919542524,
            48.77660974135116
          ],
          [
            9.191691785272678,
            48.7768270744466
          ],
          [
            9.191761718137753,
            48.77693574064144
          ],
          [
            9.191831651002829,
            48.777044406601064
          ],
          [
            9.191971516732982,
            48.77726173781462
          ],
          [
            9.192111382463134,
            48.77747906808726
          ],
          [
            9.192181315328211,
            48.777587732870735
          ],
          [
            9.192251248193376,
            48.77769639741899
          ],
          [
            9.19232059334583,
            48.77780522023416
          ],
          [
            9.19237065959919,
            48.777918394612875
          ],
          [
            9.192418100839554,
            48.778032139658436
          ],
          [
            9.192560355236939,
            48.778373387812294
          ],
          [
            9.19259716024324,
            48.778488848352964
          ],
          [
            9.19263189460137,
            48.77860455701236
          ],
          [
            9.192701242566356,
            48.77883598691675
          ],
          [
            9.192735670678475,
            48.77895172682391
          ],
          [
            9.19274668564379,
            48.77899702663923
          ]
        ],
        "type": "LineString"
      },
      "properties": {
        "from": "0x12f6a80",
        "lines": [
          {
            "color": "015aaa",
            "id": "0x130ed90",
            "label": "U15"
          }
        ],
        "to": "0x12f6dc0"
      },
      "type": "Feature"
    },
    {
      "geometry": {
        "coordinates": [
          [
            9.19274668564379,
            48.77899702663923
          ],
          [
            9.192775763705834,
            48.77934862609539
          ],
          [
            9.192785386614476,
            48.77946582825098
          ],
          [
            9.192727251846128,
            48.77957432397417
          ],
          [
            9.192635988360303,
            48.77967496705514
          ],
          [
            9.1925301046645,
            48.779768667834034
          ],
          [
            9.192376132176774,
            48.77982102295827
          ],
          [
            9.192209831742968,
            48.77986144564886
          ],
          [
            9.192035188831097,
            48.7798823086107
          ],
          [
            9.191860906783077,
            48.779890592600786
          ],
          [
            9.19170295556506,
            48.77984539452277
          ],
          [
            9.191551001055482,
            48.77978446304273
          ],
          [
            9.191400613101667,
            48.77972204318802
          ],
          [
            9.191288627493835,
            48.779635056058495
          ],
          [
            9.191179772275726,
            48.779411529150835
          ],
          [
            9.191125344666718,
            48.77929976532379
          ],
          [
            9.191016489448609,
            48.77907623692302
          ],
          [
            9.1909076342305,
            48.77885270752684
          ],
          [
            9.190798779012393,
            48.77862917713531
          ],
          [
            9.190635496185186,
            48.77829387968153
          ],
          [
            9.190526640967077,
            48.77807034680141
          ],
          [
            9.190472213358069,
            48.777958579988066
          ],
          [
            9.19040064586074,
            48.77781161612419
          ]
        ],
        "type": "LineString"
      },
      "properties": {
        "from": "0x12f6dc0",
        "lines": [
          {
            "color": "015aaa",
            "id": "0x130ed90",
            "label": "U15"
          }
        ],
        "to": "0x22d6ca0"
      },
      "type": "Feature"
    },
    {
      "geometry": {
        "coordinates": [
          [
            9.19040064586074,
            48.77781161612419
          ],
          [
            9.19034579307147,
            48.77769897586557
          ],
          [
            9.190290940282202,
            48.77758633535412
          ],
          [
            9.190236087492933,
            48.77747369458993
          ],
          [
            9.190181234703664,
            48.77736105357297
          ],
          [
            9.190071529125126,
            48.77713577078079
          ],
          [
            9.190016676335857,
            48.77702312900556
          ],
          [
            9.189961823546588,
            48.776910486977584
          ],
          [
            9.189852117968051,
            48.77668520216341
          ],
          [
            9.189797265178782,
            48.77657255937716
          ],
          [
            9.189687559600245,
            48.776347273046376
          ],
          [
            9.189632706810976,
            48.77623462950185
          ],
          [
            9.189577854021707,
            48.77612198570458
          ],
          [
            9.189523001232438,
            48.776009341654536
          ],
          [
            9.18946814844326,
            48.77589669735179
          ],
          [
            9.189303590075452,
            48.775558762926856
          ],
          [
            9.189248737286183,
            48.775446117613036
          ],
          [
            9.189193884496914,
            48.775333472046434
          ],
          [
            9.189084178918376,
            48.77510818015498
          ],
          [
            9.189029326129107,
            48.77499553383012
          ],
          [
            9.18891962055057,
            48.77477024042217
          ],
          [
            9.1888647677613,
            48.774657593339036
          ],
          [
            9.188809914972031,
            48.77454494600313
          ],
          [
            9.188755062182763,
            48.774432298414474
          ],
          [
            9.188633162579977,
            48.77434692020774
          ],
          [
            9.188499499442068,
            48.77426795247307
          ],
          [
            9.188365669518719,
            48.774189100912494
          ],
          [
            9.188098007263102,
            48.77403139919563
          ],
          [
            9.187964176135292,
            48.77395254815137
          ]
        ],
        "type": "LineString"
      },
      "properties": {
        "from": "0x22d6ca0",
        "lines": [
          {
            "color": "015aaa",
            "id": "0x130ed90",
            "label": "U15"
          }
        ],
        "to": "0x234a090"
      },
      "type": "Feature"
    },
    {
      "geometry": {
        "coordinates": [
          [
            9.185981964496094,
            48.77406360931239
          ],
          [
            9.185566805793421,
            48.77428974121035
          ],
          [
            9.185428419558987,
            48.774365118283164
          ],
          [
            9.185290033029457,
            48.77444049501216
          ],
          [
            9.185151513387208,
            48.77451576734014
          ],
          [
            9.185012532660295,
            48.774590674490284
          ],
          [
            9.184873548760532,
            48.7746655790135
          ],
          [
            9.184734564856818,
            48.77474048342171
          ],
          [
            9.184595580953012,
            48.77481538771809
          ],
          [
            9.184317613145403,
            48.774965195975646
          ],
          [
            9.184178629241599,
            48.77504009993682
          ],
          [
            9.184039645337794,
            48.77511500378617
          ],
          [
            9.183859129261439,
            48.77521229077722
          ],
          [
            9.182805698811169,
            48.77598847608771
          ]
        ],
        "type": "LineString"
      },
      "properties": {
        "from": "0x22d6ef0",
        "lines": [
          {
            "color": "015aaa",
            "id": "0x130ed90",
            "label": "U15"
          },
          {
            "color": "ed028c",
            "id": "0x130eeb0",
            "label": "U6"
          },
          {
            "color": "00baf1",
            "id": "0x130e170",
            "label": "U5"
          },
          {
            "color": "85bbe5",
            "id": "0x130ef34",
            "label": "U12"
          },
          {
            "color": "0ab38d",
            "id": "0x130e730",
            "label": "U7"
          }
        ],
        "to": "0x22d71a0"
      },
      "type": "Feature"
    },
    {
      "geometry": {
        "coordinates": [
          [
            9.182805698811169,
            48.77598847608771
          ],
          [
            9.183371384710657,
            48.77676156472642
          ],
          [
            9.183437958735002,
            48.77683740332977
          ],
          [
            9.183523533773139,
            48.776936461744214
          ],
          [
            9.183607544843019,
            48.77703605778652
          ],
          [
            9.183689654456211,
            48.77713627642926
          ],
          [
            9.183768907228366,
            48.777237333582626
          ],
          [
            9.183845196083798,
            48.77733922141614
          ],
          [
            9.18391757544183,
            48.77744236889319
          ],
          [
            9.183980306801363,
            48.77754862525571
          ],
          [
            9.184105769520428,
            48.77776113730596
          ],
          [
            9.184168500879961,
            48.77786739299374
          ],
          [
            9.184293963599119,
            48.778079903694554
          ],
          [
            9.184419426318184,
            48.778292413495635
          ],
          [
            9.184482157677717,
            48.77839866805884
          ],
          [
            9.184607620396873,
            48.7786111765105
          ],
          [
            9.184670351756408,
            48.7787174303989
          ],
          [
            9.184795814475473,
            48.778929937501076
          ],
          [
            9.184921277194539,
            48.779142443703535
          ],
          [
            9.184984008554071,
            48.77924869646742
          ],
          [
            9.185109471273229,
            48.77946120132045
          ],
          [
            9.185234933992295,
            48.77967370527377
          ],
          [
            9.18536039671136,
            48.7798862083275
          ],
          [
            9.185423128070894,
            48.77999245951699
          ],
          [
            9.18554859079005,
            48.78020496122117
          ],
          [
            9.185611322149583,
            48.780311211735935
          ],
          [
            9.185674053509116,
            48.78041746202577
          ],
          [
            9.185799516228183,
            48.78062996193065
          ],
          [
            9.18592497894734,
            48.78084246093596
          ],
          [
            9.186050441666405,
            48.78105495904154
          ],
          [
            9.186113173025937,
            48.781161207756995
          ],
          [
            9.186175904385472,
            48.78126745624754
          ],
          [
            9.186238635745005,
            48.78137370451317
          ],
          [
            9.186301370080207,
            48.78147995179018
          ],
          [
            9.186364147149705,
            48.7815861878593
          ],
          [
            9.18642724349402,
            48.781692340732945
          ],
          [
            9.186491371870812,
            48.781798216609964
          ],
          [
            9.186560734455972,
            48.78190238476033
          ],
          [
            9.186621805871871,
            48.781964844965096
          ]
        ],
        "type": "LineString"
      },